{
  "_comment": "Monitored cities — articles within 50mi (~80km) radius are prioritized. Global high-impact events bypass proximity filter.",
  "radius_miles": 50,
  "cities": [
    {"name": "San Mateo, CA", "country": "United States", "lat": 37.5630, "lon": -122.3255},
    {"name": "San Jose, CA", "country": "United States", "lat": 37.3382, "lon": -121.8863},
    {"name": "San Francisco, CA", "country": "United States", "lat": 37.7749, "lon": -122.4194},
    {"name": "Los Angeles, CA", "country": "United States", "lat": 34.0522, "lon": -118.2437},
    {"name": "San Diego, CA", "country": "United States", "lat": 32.7157, "lon": -117.1611},
    {"name": "New York, NY", "country": "United States", "lat": 40.7128, "lon": -74.0060},
    {"name": "Washington, DC", "country": "United States", "lat": 38.9072, "lon": -77.0369},
    {"name": "Chicago, IL", "country": "United States", "lat": 41.8781, "lon": -87.6298},
    {"name": "Austin, TX", "country": "United States", "lat": 30.2672, "lon": -97.7431},
    {"name": "Seattle, WA", "country": "United States", "lat": 47.6062, "lon": -122.3321},
    {"name": "London", "country": "United Kingdom", "lat": 51.5074, "lon": -0.1278},
    {"name": "Tokyo", "country": "Japan", "lat": 35.6762, "lon": 139.6503},
    {"name": "Singapore", "country": "Singapore", "lat": 1.3521, "lon": 103.8198},
    {"name": "Sydney", "country": "Australia", "lat": -33.8688, "lon": 151.2093},
    {"name": "Berlin", "country": "Germany", "lat": 52.5200, "lon": 13.4050},
    {"name": "Amsterdam", "country": "Netherlands", "lat": 52.3676, "lon": 4.9041},
    {"name": "Toronto", "country": "Canada", "lat": 43.6532, "lon": -79.3832},
    {"name": "Seoul", "country": "South Korea", "lat": 37.5665, "lon": 126.9780},
    {"name": "Taipei", "country": "Taiwan", "lat": 25.0330, "lon": 121.5654},
    {"name": "Mumbai", "country": "India", "lat": 19.0760, "lon": 72.8777},
    {"name": "Bangalore", "country": "India", "lat": 12.9716, "lon": 77.5946},
    {"name": "Tel Aviv", "country": "Israel", "lat": 32.0853, "lon": 34.7818},
    {"name": "Dubai", "country": "United Arab Emirates", "lat": 25.2048, "lon": 55.2708},
    {"name": "Sao Paulo", "country": "Brazil", "lat": -23.5505, "lon": -46.6333}
  ]
}
